<?xml version="1.0" encoding="UTF-8"?>
<kml xmlns="http://www.opengis.net/kml/2.2">
<Document>
<Placemark>
  <name>Future Processing</name>
  <description>name=Future Processing
amenity=bicycle_rental
operator=Roovee
operator:wikidata=Q60860205</description>
  <Point>
    <coordinates>18.684239523950733,50.2779450262396</coordinates>
  </Point>
</Placemark>
<Placemark>
  <name>ul. Dąbrowskiego/Poniatowskiego</name>
  <description>name=ul. Dąbrowskiego/Poniatowskiego
amenity=bicycle_rental
operator=Roovee
operator:wikidata=Q60860205</description>
  <Point>
    <coordinates>18.693068840854096,50.29745536795446</coordinates>
  </Point>
</Placemark>
<Placemark>
  <name>ul. Jana Pawła II</name>
  <description>name=ul. Jana Pawła II
amenity=bicycle_rental
operator=Roovee
operator:wikidata=Q60860205</description>
  <Point>
    <coordinates>18.666364386187045,50.291230733503646</coordinates>
  </Point>
</Placemark>
<Placemark>
  <name>ul. Kozłowska</name>
  <description>name=ul. Kozłowska
amenity=bicycle_rental
operator=Roovee
operator:wikidata=Q60860205</description>
  <Point>
    <coordinates>18.64104838679515,50.29309565491339</coordinates>
  </Point>
</Placemark>
<Placemark>
  <name>ul. Piłsudskiego</name>
  <description>name=ul. Piłsudskiego
amenity=bicycle_rental
operator=Roovee
operator:wikidata=Q60860205</description>
  <Point>
    <coordinates>18.667021832542524,50.29713959049091</coordinates>
  </Point>
</Placemark>
</Document>
</kml>