<?xml version="1.0" encoding="UTF-8"?>
<kml xmlns="http://www.opengis.net/kml/2.2">
<Document>
<Placemark>
  <name>Ludwikowska</name>
  <description>name=Ludwikowska
amenity=bicycle_rental
operator=Roovee
operator:wikidata=Q60860205</description>
  <Point>
    <coordinates>17.376745873675226,51.19935047637215</coordinates>
  </Point>
</Placemark>
<Placemark>
  <name>OKR-ATOL</name>
  <description>name=OKR-ATOL
amenity=bicycle_rental
operator=Roovee
operator:wikidata=Q60860205</description>
  <Point>
    <coordinates>17.387604430611418,51.21715974790235</coordinates>
  </Point>
</Placemark>
<Placemark>
  <name>Owocowa</name>
  <description>name=Owocowa
amenity=bicycle_rental
operator=Roovee
operator:wikidata=Q60860205</description>
  <Point>
    <coordinates>17.374075711644064,51.22242756206785</coordinates>
  </Point>
</Placemark>
<Placemark>
  <name>Sp. nr 8 - Parking</name>
  <description>name=Sp. nr 8 - Parking
amenity=bicycle_rental
operator=Roovee
operator:wikidata=Q60860205</description>
  <Point>
    <coordinates>17.35709134360668,51.202571096531955</coordinates>
  </Point>
</Placemark>
<Placemark>
  <name>Wileńska - Krzywa</name>
  <description>name=Wileńska - Krzywa
amenity=bicycle_rental
operator=Roovee
operator:wikidata=Q60860205</description>
  <Point>
    <coordinates>17.400697188433107,51.209024260297845</coordinates>
  </Point>
</Placemark>
<Placemark>
  <name>Wojska Polskiego - II LO</name>
  <description>name=Wojska Polskiego - II LO
amenity=bicycle_rental
operator=Roovee
operator:wikidata=Q60860205</description>
  <Point>
    <coordinates>17.395824101041285,51.21430833516991</coordinates>
  </Point>
</Placemark>
</Document>
</kml>