<?xml version="1.0" encoding="UTF-8"?>
<kml xmlns="http://www.opengis.net/kml/2.2">
<Document>
<Placemark>
  <name>OKR-ATOL</name>
  <description>name=OKR-ATOL
amenity=bicycle_rental
operator=Roovee
operator:wikidata=Q60860205</description>
  <Point>
    <coordinates>17.387604430611418,51.21715974790235</coordinates>
  </Point>
</Placemark>
<Placemark>
  <name>Oleśnicka Biblioteka Publiczna</name>
  <description>name=Oleśnicka Biblioteka Publiczna
amenity=bicycle_rental
operator=Roovee
operator:wikidata=Q60860205</description>
  <Point>
    <coordinates>17.382012838499577,51.203791772324344</coordinates>
  </Point>
</Placemark>
<Placemark>
  <name>Rynek - Ratusz</name>
  <description>name=Rynek - Ratusz
amenity=bicycle_rental
operator=Roovee
operator:wikidata=Q60860205</description>
  <Point>
    <coordinates>17.37976393140798,51.20938496423983</coordinates>
  </Point>
</Placemark>
<Placemark>
  <name>Sp. nr 8 - Parking</name>
  <description>name=Sp. nr 8 - Parking
amenity=bicycle_rental
operator=Roovee
operator:wikidata=Q60860205</description>
  <Point>
    <coordinates>17.35709134360668,51.202571096531955</coordinates>
  </Point>
</Placemark>
<Placemark>
  <name>Wileńska - Krzywa</name>
  <description>name=Wileńska - Krzywa
amenity=bicycle_rental
operator=Roovee
operator:wikidata=Q60860205</description>
  <Point>
    <coordinates>17.400697188433107,51.209024260297845</coordinates>
  </Point>
</Placemark>
<Placemark>
  <name>Wojska Polskiego - II LO</name>
  <description>name=Wojska Polskiego - II LO
amenity=bicycle_rental
operator=Roovee
operator:wikidata=Q60860205</description>
  <Point>
    <coordinates>17.395824101041285,51.21430833516991</coordinates>
  </Point>
</Placemark>
</Document>
</kml>