<?xml version="1.0" encoding="UTF-8"?>
<kml xmlns="http://www.opengis.net/kml/2.2">
<Document>
<Placemark>
  <name>10. Plac Rodła - al. Wyzwolenia</name>
  <description>name=10. Plac Rodła - al. Wyzwolenia
amenity=bicycle_rental
operator=Roovee
operator:wikidata=Q60860205</description>
  <Point>
    <coordinates>14.554211669946913,53.432205471618786</coordinates>
  </Point>
</Placemark>
<Placemark>
  <name>205. Mierzyn - Alicji (wirtualna) </name>
  <description>name=205. Mierzyn - Alicji (wirtualna) 
amenity=bicycle_rental
operator=Roovee
operator:wikidata=Q60860205</description>
  <Point>
    <coordinates>14.460959787413072,53.43235300346474</coordinates>
  </Point>
</Placemark>
<Placemark>
  <name>301. Warzymice</name>
  <description>name=301. Warzymice
amenity=bicycle_rental
operator=Roovee
operator:wikidata=Q60860205</description>
  <Point>
    <coordinates>14.485387418102809,53.390250596566275</coordinates>
  </Point>
</Placemark>
<Placemark>
  <name>68. Rondo Sybiraków</name>
  <description>name=68. Rondo Sybiraków
amenity=bicycle_rental
operator=Roovee
operator:wikidata=Q60860205</description>
  <Point>
    <coordinates>14.549275237435632,53.4458537341679</coordinates>
  </Point>
</Placemark>
<Placemark>
  <name>71. Fabryka Wody</name>
  <description>name=71. Fabryka Wody
amenity=bicycle_rental
operator=Roovee
operator:wikidata=Q60860205</description>
  <Point>
    <coordinates>14.566754143894553,53.443638823675414</coordinates>
  </Point>
</Placemark>
<Placemark>
  <name>82. Wernyhory</name>
  <description>name=82. Wernyhory
amenity=bicycle_rental
operator=Roovee
operator:wikidata=Q60860205</description>
  <Point>
    <coordinates>14.497577096318262,53.44484383956921</coordinates>
  </Point>
</Placemark>
<Placemark>
  <name>83. Plac Lotników </name>
  <description>name=83. Plac Lotników 
amenity=bicycle_rental
operator=Roovee
operator:wikidata=Q60860205</description>
  <Point>
    <coordinates>14.550839479606624,53.430613769903</coordinates>
  </Point>
</Placemark>
<Placemark>
  <name>84. Osiedle za Sterem</name>
  <description>name=84. Osiedle za Sterem
amenity=bicycle_rental
operator=Roovee
operator:wikidata=Q60860205</description>
  <Point>
    <coordinates>14.487499804121192,53.42896608356123</coordinates>
  </Point>
</Placemark>
<Placemark>
  <name>91. Królewskiego - Rostocka</name>
  <description>name=91. Królewskiego - Rostocka
amenity=bicycle_rental
operator=Roovee
operator:wikidata=Q60860205</description>
  <Point>
    <coordinates>14.556089486742572,53.46274268304283</coordinates>
  </Point>
</Placemark>
<Placemark>
  <name>92. Łączna</name>
  <description>name=92. Łączna
amenity=bicycle_rental
operator=Roovee
operator:wikidata=Q60860205</description>
  <Point>
    <coordinates>14.561466326918747,53.47123360421971</coordinates>
  </Point>
</Placemark>
<Placemark>
  <name>93. Królewskiego</name>
  <description>name=93. Królewskiego
amenity=bicycle_rental
operator=Roovee
operator:wikidata=Q60860205</description>
  <Point>
    <coordinates>14.558706776386545,53.46771526138819</coordinates>
  </Point>
</Placemark>
<Placemark>
  <name>94. Hoża - Bogumińska</name>
  <description>name=94. Hoża - Bogumińska
amenity=bicycle_rental
operator=Roovee
operator:wikidata=Q60860205</description>
  <Point>
    <coordinates>14.577129896185141,53.46266493765476</coordinates>
  </Point>
</Placemark>
<Placemark>
  <name>95. Hoża Studzienna</name>
  <description>name=95. Hoża Studzienna
amenity=bicycle_rental
operator=Roovee
operator:wikidata=Q60860205</description>
  <Point>
    <coordinates>14.579936180745152,53.45997347302548</coordinates>
  </Point>
</Placemark>
</Document>
</kml>